{"type": "FeatureCollection", "features": [{"geometry": {"type": "Point", "coordinates": [-95.3698028, 29.7604267]}, "type": "Feature", "properties": {"query": "Machinist I", "company": "Pridestaff", "posted": "2015-03-12 20:40:28.186722", "job_title": "CNC Lathe Machinist"}}, {"geometry": {"type": "Point", "coordinates": [-117.9608978, 34.0852868]}, "type": "Feature", "properties": {"query": "Machinist I", "company": "Cor-Tech", "posted": "2015-03-13 20:40:29.377511", "job_title": "Machine Operator I (2nd Shift) - 7487"}}, {"geometry": {"type": "Point", "coordinates": [-80.1917902, 25.7616798]}, "type": "Feature", "properties": {"query": "Machinist I", "company": "AAR", "posted": "2015-03-07 20:40:30.740378", "job_title": "Machinist I"}}, {"geometry": {"type": "Point", "coordinates": [-87.9703461, 42.0039178]}, "type": "Feature", "properties": {"query": "Machinist I", "company": "Espo Engineering", "posted": "2015-03-04 20:40:32.155797", "job_title": "CNC Operator, CNC Machinist, CNC Set-Up and CNC Programmer positions"}}, {"geometry": {"type": "Point", "coordinates": [-95.992775, 36.1539816]}, "type": "Feature", "properties": {"query": "Machinist I", "company": "Abundant Solutions", "posted": "2015-03-22 06:40:33.299288", "job_title": "Warehouse Laser Trainee, Forklift, Pipe Welder, Structural Welder, Combo Welder, Vessel Welder, CNC Machinist, CDL A Driver, Shop Help, Engine Assemb"}}, {"geometry": {"type": "Point", "coordinates": [-117.9608978, 34.0852868]}, "type": "Feature", "properties": {"query": "Machinist I", "company": "Cor-Tech", "posted": "2015-03-13 20:40:34.721328", "job_title": "Machine Operator I (3rd Shift) - 7267"}}, {"geometry": {"type": "Point", "coordinates": [-87.5710898, 37.9715592]}, "type": "Feature", "properties": {"query": "Machinist I", "company": "Liberty Personnel Services", "posted": "2015-03-05 20:40:35.866739", "job_title": "CNC Machinist"}}, {"geometry": {"type": "Point", "coordinates": [-122.121512, 47.6739881]}, "type": "Feature", "properties": {"query": "Machinist I", "company": "Compnova.com", "posted": "2015-03-14 20:40:37.201446", "job_title": "Prototyping Machinist"}}, {"geometry": {"type": "Point", "coordinates": [-112.1859866, 33.5386523]}, "type": "Feature", "properties": {"query": "Machinist I", "company": "Kite Staffing", "posted": "2015-03-08 20:40:38.666495", "job_title": "Machinist opportunities (CNC)"}}, {"geometry": {"type": "Point", "coordinates": [-82.6923591, 34.787891]}, "type": "Feature", "properties": {"query": "Machinist I", "company": "Pridestaff", "posted": "2015-02-25 20:40:41.110337", "job_title": "CNC Machinist"}}, {"geometry": {"type": "Point", "coordinates": [-77.0510857, 38.3312379]}, "type": "Feature", "properties": {"query": "Machinist I", "company": "Bowhead / Uic Technical Services", "posted": "2015-03-21 20:40:42.640678", "job_title": "Machinist - Engineering Tech with Security Clearance"}}, {"geometry": {"type": "Point", "coordinates": [-103.207709, 40.6255415]}, "type": "Feature", "properties": {"query": "Machinist I", "company": "Advantage Resourcing", "posted": "2015-03-12 20:40:43.81916", "job_title": "CNC Machinist"}}, {"geometry": {"type": "Point", "coordinates": [-83.0457538, 42.331427]}, "type": "Feature", "properties": {"query": "Machinist I", "company": "Partner Personnel", "posted": "2015-03-06 20:40:44.966839", "job_title": "CNC Machinist"}}, {"geometry": {"type": "Point", "coordinates": [-92.5365713, 47.5232596]}, "type": "Feature", "properties": {"query": "Machinist I", "company": "Joy Global", "posted": "2015-03-10 20:40:46.353753", "job_title": "Welder I, II & III"}}, {"geometry": {"type": "Point", "coordinates": [-93.939947, 29.8849504]}, "type": "Feature", "properties": {"query": "Machinist I", "company": "I-corp", "posted": "2015-03-12 20:40:47.864206", "job_title": "Experienced Manual Machinist"}}, {"geometry": {"type": "Point", "coordinates": [-95.3698028, 29.7604267]}, "type": "Feature", "properties": {"query": "Machinist I", "company": "Ellwood Texas Forge Houston", "posted": "2015-03-13 20:40:49.374095", "job_title": "CNC Lathe Machinist"}}, {"geometry": {"type": "Point", "coordinates": [-76.4113497, 40.3409251]}, "type": "Feature", "properties": {"query": "Machinist I", "company": "I. Auman Machine", "posted": "2015-03-04 20:40:50.516243", "job_title": "CNC Machinist"}}, {"geometry": {"type": "Point", "coordinates": [-121.8863286, 37.3382082]}, "type": "Feature", "properties": {"query": "Machinist I", "company": "Junopacific", "posted": "2015-03-17 20:40:51.66529", "job_title": "3D Machinist"}}, {"geometry": {"type": "Point", "coordinates": [-121.8863286, 37.3382082]}, "type": "Feature", "properties": {"query": "Machinist I", "company": "Junopacific", "posted": "2015-03-12 20:40:53.788832", "job_title": "JunoPacific: Machinist: 3D, 2D, CNC, CAD, Tool Maker, Program Manager"}}, {"geometry": {"type": "Point", "coordinates": [-87.9703461, 42.0039178]}, "type": "Feature", "properties": {"query": "Machinist I", "company": "Espo Engineering", "posted": "2015-03-10 20:40:54.944145", "job_title": "Cnc Machinists"}}, {"geometry": {"type": "Point", "coordinates": [-90.0489801, 35.1495343]}, "type": "Feature", "properties": {"query": "Machinist I", "company": "Smith & Nephew", "posted": "2015-03-22 01:40:56.108991", "job_title": "Machinist I - 3rd Shift"}}, {"geometry": {"type": "Point", "coordinates": [-90.0489801, 35.1495343]}, "type": "Feature", "properties": {"query": "Machinist I", "company": "Smith & Nephew", "posted": "2015-03-22 01:40:57.246178", "job_title": "Machinist I - Rotation Shift"}}, {"geometry": {"type": "Point", "coordinates": [-86.4958219, 34.3181497]}, "type": "Feature", "properties": {"query": "Machinist I", "company": "Orchid Orthopedic Solutions", "posted": "2015-03-22 07:40:58.810786", "job_title": "CNC Production Machinist I- PG 5"}}, {"geometry": {"type": "Point", "coordinates": [-86.4958219, 34.3181497]}, "type": "Feature", "properties": {"query": "Machinist I", "company": "Orchid Orthopedic Solutions", "posted": "2015-03-22 07:40:59.953443", "job_title": "CNC Production Machinist I- PG 5"}}, {"geometry": {"type": "Point", "coordinates": [-114.1804038, 48.3799643]}, "type": "Feature", "properties": {"query": "Machinist I", "company": "Plum Creek", "posted": "2015-03-19 20:41:01.618587", "job_title": "Machinist I"}}, {"geometry": {"type": "Point", "coordinates": [-96.9253004, 35.3272928]}, "type": "Feature", "properties": {"query": "Machinist I", "company": "Belcan", "posted": "2015-03-18 20:41:03.11936", "job_title": "Machinist I"}}, {"geometry": {"type": "Point", "coordinates": [-102.3676431, 31.8456816]}, "type": "Feature", "properties": {"query": "Machinist I", "company": "Warren Equipment Company", "posted": "2015-03-17 20:41:04.615981", "job_title": "Machinist I (ODE)"}}, {"geometry": {"type": "Point", "coordinates": [-118.0853451, 33.9472359]}, "type": "Feature", "properties": {"query": "Machinist I", "company": "Superior Group", "posted": "2015-03-12 20:41:06.375378", "job_title": "Machinist I"}}, {"geometry": {"type": "Point", "coordinates": [-123.0350963, 44.9428975]}, "type": "Feature", "properties": {"query": "Machinist I", "company": "Allegheny Technologies", "posted": "2015-03-18 20:41:08.696217", "job_title": "Machinists - CNC Level I & II"}}, {"geometry": {"type": "Point", "coordinates": [-121.9885719, 37.5482697]}, "type": "Feature", "properties": {"query": "Machinist I", "company": "Benchmark Electronics", "posted": "2015-03-03 20:41:10.512009", "job_title": "Machinist I"}}, {"geometry": {"type": "Point", "coordinates": [-122.0310733, 37.9779776]}, "type": "Feature", "properties": {"query": "Machinist I", "company": "Johnson Service Group", "posted": "2015-03-14 20:41:11.90335", "job_title": "CNC Machinist - Level I and Level II -"}}, {"geometry": {"type": "Point", "coordinates": [-81.7948103, 26.1420358]}, "type": "Feature", "properties": {"query": "Machinist I", "company": "Arthrex Manufacturing", "posted": "2015-03-08 20:41:13.048558", "job_title": "Machinist I - Pilot Production"}}, {"geometry": {"type": "Point", "coordinates": [-97.1330683, 33.2148412]}, "type": "Feature", "properties": {"query": "Machinist I", "company": "GreenPoint Technologies", "posted": "2015-02-27 20:41:14.192205", "job_title": "CNC Machinist I  Milling"}}, {"geometry": {"type": "Point", "coordinates": [-119.4179324, 36.778261]}, "type": "Feature", "properties": {"query": "Machinist I", "company": "Chipton Ross", "posted": "2015-02-27 20:41:15.978973", "job_title": "Experimental Machinist- I"}}, {"geometry": {"type": "Point", "coordinates": [-102.3676431, 31.8456816]}, "type": "Feature", "properties": {"query": "Machinist I", "company": "Warren Equipment Company", "posted": "2015-03-22 09:41:17.323627", "job_title": "Machinist I (ODE)"}}, {"geometry": {"type": "Point", "coordinates": [-90.9200987, 30.2385294]}, "type": "Feature", "properties": {"query": "Machinist I", "company": "Emerson Electric Co", "posted": "2015-02-24 20:41:18.743623", "job_title": "Machinist I - Gonzalez, LA - Fisher Lifecycle Services"}}, {"geometry": {"type": "Point", "coordinates": [-90.0489801, 35.1495343]}, "type": "Feature", "properties": {"query": "Machinist I", "company": "Smith & Nephew", "posted": "2015-03-22 01:41:20.136464", "job_title": "Machinist I - Rotation Shift"}}, {"geometry": {"type": "Point", "coordinates": [-86.4958219, 34.3181497]}, "type": "Feature", "properties": {"query": "Machinist I", "company": "Orchid Orthopedic Solutions", "posted": "2015-03-22 07:41:21.352904", "job_title": "CNC Production Machinist I- PG 5"}}, {"geometry": {"type": "Point", "coordinates": [-96.9253004, 35.3272928]}, "type": "Feature", "properties": {"query": "Machinist I", "company": "Belcan", "posted": "2015-03-18 20:41:23.725387", "job_title": "Machinist I"}}, {"geometry": {"type": "Point", "coordinates": [-111.8910474, 40.7607793]}, "type": "Feature", "properties": {"query": "Machinist I", "company": "Exelis", "posted": "2015-02-21 20:41:24.879085", "job_title": "Machinist I (Shift 1)"}}, {"geometry": {"type": "Point", "coordinates": [-104.8213634, 38.8338816]}, "type": "Feature", "properties": {"query": "Machinist I", "company": "United Technologies", "posted": "2015-03-11 20:41:26.393257", "job_title": "CNC Machinist I - Co Springs"}}, {"geometry": {"type": "Point", "coordinates": [-75.1652215, 39.9525839]}, "type": "Feature", "properties": {"query": "Machinist I", "company": "Saudi Aramco", "posted": "2015-03-09 20:41:27.533877", "job_title": "Sr. Machinist Tech - Relocation to Saudi Arabia"}}, {"geometry": {"type": "Point", "coordinates": [-123.0350963, 44.9428975]}, "type": "Feature", "properties": {"query": "Machinist II", "company": "ATI Cast Products Salem Operations", "posted": "2015-03-07 22:22:04.464232", "job_title": "CNC Machinist II - Mills"}}, {"geometry": {"type": "Point", "coordinates": [-76.6121893, 39.2903848]}, "type": "Feature", "properties": {"query": "Machinist II", "company": "Cor-Tech", "posted": "2015-03-12 22:22:05.602816", "job_title": "Crafts II : 7732-1"}}, {"geometry": {"type": "Point", "coordinates": [-122.8037102, 45.487062]}, "type": "Feature", "properties": {"query": "Machinist II", "company": "Nike", "posted": "2015-03-19 22:22:06.769941", "job_title": "Machinist II"}}, {"geometry": {"type": "Point", "coordinates": [-120.926111, 38.665833]}, "type": "Feature", "properties": {"query": "Machinist II", "company": "FMC Technologies Schilling Robotics", "posted": "2015-03-03 22:22:08.194642", "job_title": "CNC Machinist II or III"}}, {"geometry": {"type": "Point", "coordinates": [-94.968269, 33.1567863]}, "type": "Feature", "properties": {"query": "Machinist II", "company": "RPM Staffing Professionals", "posted": "2015-03-18 22:22:09.589991", "job_title": "Quality Control Technician II"}}, {"geometry": {"type": "Point", "coordinates": [-80.1373174, 26.1224386]}, "type": "Feature", "properties": {"query": "Machinist II", "company": "Inerjy", "posted": "2015-02-23 22:22:11.144806", "job_title": "CNC Machinist II / Toolmaker"}}, {"geometry": {"type": "Point", "coordinates": [-92.5365713, 47.5232596]}, "type": "Feature", "properties": {"query": "Machinist II", "company": "Joy Global", "posted": "2015-03-10 22:22:12.616843", "job_title": "Welder I, II & III"}}, {"geometry": {"type": "Point", "coordinates": [-93.1516124, 45.1485771]}, "type": "Feature", "properties": {"query": "Machinist II", "company": "Global Staffing", "posted": "2015-03-22 07:22:13.807334", "job_title": "CNC Machinists Class B - 2nd and 3rd Shift"}}, {"geometry": {"type": "Point", "coordinates": [-93.2650108, 44.977753]}, "type": "Feature", "properties": {"query": "Machinist II", "company": "Perrigo Company", "posted": "2015-03-13 22:22:15.216838", "job_title": "Maintenance Engineering Technician II - 3rd Shift (2013758)"}}, {"geometry": {"type": "Point", "coordinates": [-117.9608978, 34.0852868]}, "type": "Feature", "properties": {"query": "Machinist II", "company": "Advantage Resourcing", "posted": "2015-03-03 22:22:16.391464", "job_title": "Machinist"}}, {"geometry": {"type": "Point", "coordinates": [-94.9657688, 32.9954021]}, "type": "Feature", "properties": {"query": "Machinist II", "company": "RPM Staffing Professionals", "posted": "2015-03-11 22:22:18.448627", "job_title": "Quality Control Technician II"}}, {"geometry": {"type": "Point", "coordinates": [-121.8863286, 37.3382082]}, "type": "Feature", "properties": {"query": "Machinist II", "company": "Junopacific", "posted": "2015-03-17 22:22:19.806761", "job_title": "3D Machinist"}}, {"geometry": {"type": "Point", "coordinates": [-88.2314813, 43.0116784]}, "type": "Feature", "properties": {"query": "Machinist II", "company": "Valveworks USA - Wisconsin", "posted": "2015-02-24 22:22:20.988829", "job_title": "Level II CNC Lathe Machinist"}}, {"geometry": {"type": "Point", "coordinates": [-121.8863286, 37.3382082]}, "type": "Feature", "properties": {"query": "Machinist II", "company": "Junopacific", "posted": "2015-03-12 22:22:22.451246", "job_title": "JunoPacific: Machinist: 3D, 2D, CNC, CAD, Tool Maker, Program Manager"}}, {"geometry": {"type": "Point", "coordinates": [-88.2314813, 43.0116784]}, "type": "Feature", "properties": {"query": "Machinist II", "company": "Valveworks USA - Wisconsin", "posted": "2015-02-24 22:22:23.768677", "job_title": "Level II CNC Mill Machinist"}}, {"geometry": {"type": "Point", "coordinates": [-75.1652215, 39.9525839]}, "type": "Feature", "properties": {"query": "Machinist II", "company": "Saudi Aramco", "posted": "2015-03-09 22:22:24.901846", "job_title": "Machinist II - Relocation to Saudi Arabia"}}, {"geometry": {"type": "Point", "coordinates": [-112.0740373, 33.4483771]}, "type": "Feature", "properties": {"query": "Machinist II", "company": "Honeywell International", "posted": "2015-03-22 19:22:26.234701", "job_title": "Machinist II 2nd Shift"}}, {"geometry": {"type": "Point", "coordinates": [-112.0740373, 33.4483771]}, "type": "Feature", "properties": {"query": "Machinist II", "company": "Honeywell International", "posted": "2015-03-22 19:22:27.668233", "job_title": "Machinist II"}}, {"geometry": {"type": "Point", "coordinates": [-86.5861037, 34.7303688]}, "type": "Feature", "properties": {"query": "Machinist II", "company": "Servus Group", "posted": "2015-03-20 22:22:29.071663", "job_title": "Machinist II (2nd Shift)"}}, {"geometry": {"type": "Point", "coordinates": [-85.2907896, 34.8711879]}, "type": "Feature", "properties": {"query": "Machinist II", "company": "Shaw Industries", "posted": "2015-03-20 22:22:30.404226", "job_title": "Machinist II - Corporate Machine Shop - Plant SI - 1st Shift"}}, {"geometry": {"type": "Point", "coordinates": [-118.5713357, 34.4560447]}, "type": "Feature", "properties": {"query": "Machinist II", "company": "Inginaire", "posted": "2015-03-19 22:22:32.499092", "job_title": "CNC Machinist II (Mill)"}}, {"geometry": {"type": "Point", "coordinates": [-122.2020794, 47.9789848]}, "type": "Feature", "properties": {"query": "Machinist II", "company": "Tect", "posted": "2015-03-13 22:22:33.753972", "job_title": "MACHINIST II OR III"}}, {"geometry": {"type": "Point", "coordinates": [-82.9532036, 34.6856555]}, "type": "Feature", "properties": {"query": "Machinist II", "company": "Borg Warner Corporate", "posted": "2015-03-11 22:22:34.919857", "job_title": "2014-125 Machinist II, 3rd"}}, {"geometry": {"type": "Point", "coordinates": [-73.4540111, 41.394817]}, "type": "Feature", "properties": {"query": "Machinist II", "company": "United Technologies", "posted": "2015-03-11 22:22:36.056436", "job_title": "Machinist II - 2nd Shift"}}, {"geometry": {"type": "Point", "coordinates": [-96.8928309, 33.0806083]}, "type": "Feature", "properties": {"query": "Machinist II", "company": "Orthofix", "posted": "2015-03-11 22:22:37.461749", "job_title": "Swiss Machinist II - 2nd Shift"}}, {"geometry": {"type": "Point", "coordinates": [-118.3406288, 33.8358492]}, "type": "Feature", "properties": {"query": "Machinist II", "company": "Superior Group", "posted": "2015-03-09 22:22:38.911808", "job_title": "Machinist II"}}, {"geometry": {"type": "Point", "coordinates": [-80.8431267, 35.2270869]}, "type": "Feature", "properties": {"query": "Machinist II", "company": "Piedmont Plastics", "posted": "2015-03-15 22:22:40.087033", "job_title": "Production Machinist II - Charlotte - Manufacturing/Production"}}, {"geometry": {"type": "Point", "coordinates": [-118.1445155, 34.1477849]}, "type": "Feature", "properties": {"query": "Machinist II", "company": "&quot; &quot;", "posted": "2015-03-14 22:22:41.518972", "job_title": "Prototype Machinist II"}}, {"geometry": {"type": "Point", "coordinates": [-123.0350963, 44.9428975]}, "type": "Feature", "properties": {"query": "Machinist II", "company": "Allegheny Technologies", "posted": "2015-03-18 22:22:42.744815", "job_title": "Machinists - CNC Level I & II"}}, {"geometry": {"type": "Point", "coordinates": [-76.5032996, 40.109818]}, "type": "Feature", "properties": {"query": "Machinist II", "company": "Tyco Electronics", "posted": "2015-03-03 22:22:44.216908", "job_title": "Machinist II"}}, {"geometry": {"type": "Point", "coordinates": [-122.0310733, 37.9779776]}, "type": "Feature", "properties": {"query": "Machinist II", "company": "Benchmark Electronics", "posted": "2015-03-03 22:22:46.492045", "job_title": "Machinist II"}}, {"geometry": {"type": "Point", "coordinates": [-119.4179324, 36.778261]}, "type": "Feature", "properties": {"query": "Machinist II", "company": "Sargent Avborne", "posted": "2015-03-03 22:22:47.886211", "job_title": "Machinist II - Grind Operator II"}}, {"geometry": {"type": "Point", "coordinates": [-86.018651, 42.8125246]}, "type": "Feature", "properties": {"query": "Machinist II", "company": "Illinois Tool Works", "posted": "2015-03-18 22:22:49.261336", "job_title": "CNC Machinist II"}}, {"geometry": {"type": "Point", "coordinates": [-87.4547635, 41.6392024]}, "type": "Feature", "properties": {"query": "Machinist II", "company": "Progress Rail Services", "posted": "2015-03-17 22:22:50.678051", "job_title": "Machinist II - Axle (East Chicago Locomotive)"}}, {"geometry": {"type": "Point", "coordinates": [-93.1566112, 45.0502435]}, "type": "Feature", "properties": {"query": "Machinist II", "company": "Boston Scientific", "posted": "2015-03-09 22:22:52.140668", "job_title": "Machinist II Job"}}, {"geometry": {"type": "Point", "coordinates": [-122.2284532, 47.3073228]}, "type": "Feature", "properties": {"query": "Machinist II", "company": "Skills", "posted": "2015-03-12 22:22:53.613649", "job_title": "Aerospace CNC Machinist Level II"}}, {"geometry": {"type": "Point", "coordinates": [-81.5157535, 27.6648274]}, "type": "Feature", "properties": {"query": "Machinist II", "company": "Jacobs", "posted": "2015-03-07 22:22:54.94112", "job_title": "Technician II - Machinist (Temporary Assignment)"}}, {"geometry": {"type": "Point", "coordinates": [-88.0070315, 43.0166806]}, "type": "Feature", "properties": {"query": "Machinist II", "company": "Oedb", "posted": "2015-02-26 22:22:56.42376", "job_title": "Machinist II - Jouneyman preferred"}}, {"geometry": {"type": "Point", "coordinates": [-72.5578678, 42.8509152]}, "type": "Feature", "properties": {"query": "Machinist II", "company": "G.S. Precision", "posted": "2015-03-04 22:22:57.613412", "job_title": "Machinist-CNC Swiss-Shift II"}}, {"geometry": {"type": "Point", "coordinates": [-112.0740373, 33.4483771]}, "type": "Feature", "properties": {"query": "Machinist II", "company": "Honeywell International", "posted": "2015-03-22 19:22:59.155931", "job_title": "Machinist II"}}, {"geometry": {"type": "Point", "coordinates": [-118.5713357, 34.4560447]}, "type": "Feature", "properties": {"query": "Machinist II", "company": "Inginaire", "posted": "2015-03-19 22:23:01.446161", "job_title": "CNC Machinist II- Mill Set-up"}}, {"geometry": {"type": "Point", "coordinates": [-112.0740373, 33.4483771]}, "type": "Feature", "properties": {"query": "Machinist II", "company": "Honeywell", "posted": "2015-03-18 22:23:02.923603", "job_title": "Machinist II"}}, {"geometry": {"type": "Point", "coordinates": [-95.3776663, 45.8848164]}, "type": "Feature", "properties": {"query": "Machinist II", "company": "Douglas Machine", "posted": "2015-03-11 22:23:04.25723", "job_title": "CNC Machinist I or II (Wknd Shift)"}}]}